[
    {
        "abbrev":"GCS",
        "name":"Grand Central Station",
        "lat":40.753165,
        "lon":-73.977379,
        "url":"https://www.mta.info/stations/grand-central-terminal"
    },
    {
        "abbrev":"GW",
        "name":"Greenwich",
        "lat":41.021705,
        "lon":-73.624597,
        "url":"https://www.mta.info/stations/greenwich"
    },
    {
        "abbrev":"STM",
        "name":"Stamford",
        "lat":41.04665375272103,
        "lon":-73.54284524917603,
        "url":"https://www.mta.info/stations/stamford"
    },
    {
        "abbrev":"SN",
        "name":"South Norwalk",
        "lat":41.095529,
        "lon":-73.421803,
        "url":"https://www.mta.info/stations/south-norwalk"
    },
    {
        "abbrev":"BRP",
        "name":"Bridgeport",
        "lat":41.17870242332479,
        "lon":-73.18707704544067,
        "url":"https://www.mta.info/stations/bridgeport"
    },
    {
        "abbrev":"STR",
        "name":"Stratford",
        "lat":41.19428563274378,
        "lon":-73.13156604766846,
        "url":"https://www.mta.info/stations/stratford"
    },
    {
        "abbrev":"MIL",
        "name":"Milford",
        "lat":41.223229872871606,
        "lon":-73.05766582489014,
        "url":"https://www.mta.info/stations/milford"
    },
    {
        "abbrev":"WH",
        "name":"West Haven",
        "lat":41.271408,
        "lon":-72.964722,
        "url":"https://www.mta.info/stations/west-haven"
    },
    {
        "abbrev":"NHV",
        "name":"New Haven Union Station",
        "lat":41.29771887088102,
        "lon":-72.92673110961914,
        "url":"https://shorelineeast.com/stations/union-station-new-haven/"
    },
    {
        "abbrev":"ST",
        "name":"New Haven State Street Station",
        "lat":41.3049849812806,
        "lon":-72.92176365852356,
        "url":"https://shorelineeast.com/stations/state-street-station-new-haven/"
    },
    {
        "abbrev":"BRN",
        "name":"Branford",
        "lat":41.27462757904543,
        "lon":-72.81724601984024,
        "url":"https://shorelineeast.com/stations/branford-station/"
    },
    {
        "abbrev":"GUIL",
        "name":"Guilford",
        "lat":41.275818924391224,
        "lon":-72.6736432313919,
        "url":"https://shorelineeast.com/stations/guilford-station/"
    },
    {
        "abbrev":"MAD",
        "name":"Madison",
        "lat":41.28366795570182,
        "lon":-72.59953916072845,
        "url":"https://shorelineeast.com/stations/madison-station/"
    },
    {
        "abbrev":"CLIN",
        "name":"Clinton",
        "lat":41.279485551365795,
        "lon":-72.52829968929291,
        "url":"https://shorelineeast.com/stations/clinton-station/"
    },
    {
        "abbrev":"WES",
        "name":"Westbrook",
        "lat":41.28876307212696,
        "lon":-72.44840204715729,
        "url":"https://shorelineeast.com/stations/westbrook-station/"
    },
    {
        "abbrev":"OSB",
        "name":"Old Saybrook",
        "lat":41.30039086249561,
        "lon":-72.37682461738586,
        "url":"https://shorelineeast.com/stations/old-saybrook-station/"
    },
    {
        "abbrev":"NLC",
        "name":"New London",
        "lat":41.354158032583534,
        "lon":-72.0930764079094,
        "url":"https://shorelineeast.com/stations/new-london-station/"
    }
]
